[{
    "name": "Robbery in City Center",
    "latitude": "50.9378597",
    "longitude": "6.9502884",
    "radius": "2000",
    "type": "life",
    "premium": 40,
    "when": false,
    "where": true,
    "city": "cologne"
}, {
    "name": "Murder in Kalk",
    "latitude": "50.9364657",
    "longitude": "6.978666",
    "radius": "1200",
    "type": "life",
    "premium": 30,
    "when": false,
    "where": true,
    "city": "cologne"
}, {
    "name": "Lost in Ehrenfeld",
    "latitude": "50.9668768",
    "longitude": "6.8542453",
    "radius": "1750",
    "type": "life",
    "premium": 20,
    "when": false,
    "where": true,
    "city": "cologne"
}, {
    "name": "Accident in Junkesdorf",
    "latitude": "50.9197578",
    "longitude": "6.8439196",
    "radius": "900",
    "type": "life",
    "premium": 40,
    "when": false,
    "where": true,
    "city": "cologne"
}, {
    "name": "Robbery in Nippes",
    "latitude": "50.9630002",
    "longitude": "6.9461686",
    "radius": "1400",
    "type": "life",
    "premium": 30,
    "when": false,
    "where": true,
    "city": "cologne"
}, {
    "name": "Wallet lost in Deutz",
    "latitude": "50.9332646",
    "longitude": "6.9772393",
    "radius": "1100",
    "type": "life",
    "premium": 20,
    "when": false,
    "where": true,
    "city": "cologne"
}, {
    "name": "Wallet lost in Zollstock",
    "latitude": "50.9042906",
    "longitude": "6.9211163",
    "radius": "1350",
    "type": "life",
    "premium": 30,
    "when": false,
    "where": true,
    "city": "cologne"
}, {
    "name": "Accident in Rodenkirchen",
    "latitude": "50.8769857",
    "longitude": "6.9467246",
    "radius": "1200",
    "type": "life",
    "premium": 20,
    "when": false,
    "where": true,
    "city": "cologne"
}, {
    "name": "Robbery in Müngesdorf",
    "latitude": "50.9384001",
    "longitude": "6.8518519",
    "radius": "1150",
    "type": "life",
    "premium": 30,
    "when": false,
    "where": true,
    "city": "cologne"
}, {
    "name": "Accident in Mülheim",
    "latitude": "50.9806872",
    "longitude": "6.9947973",
    "radius": "1400",
    "type": "life",
    "premium": 30,
    "when": false,
    "where": true,
    "city": "cologne"
}, {
    "name": "Street Protest",
    "latitude": "50.941659",
    "longitude": "6.958713",
    "radius": "300",
    "type": "life",
    "premium": 10,
    "when": true,
    "where": false,
    "city": "cologne"
}, {
    "name": "Street Protest",
    "latitude": "50.941012",
    "longitude": "6.959406",
    "radius": "300",
    "type": "car",
    "premium": 10,
    "when": true,
    "where": false,
    "city": "cologne"
}, {
    "name": "Street Protest",
    "latitude": "50.940561",
    "longitude": "6.959836",
    "radius": "3000",
    "type": "life",
    "premium": 10,
    "when": true,
    "where": false,
    "city": "cologne"
}, {
    "name": "Street Protest",
    "latitude": "50.939970",
    "longitude": "6.959791",
    "radius": "300",
    "type": "car",
    "premium": 10,
    "when": true,
    "where": false,
    "city": "cologne"
}, {
    "name": "Street Protest",
    "latitude": "50.939201",
    "longitude": "6.959762",
    "radius": "300",
    "type": "life",
    "premium": 10,
    "when": true,
    "where": false,
    "city": "cologne"
}, {
    "name": "Street Protest",
    "latitude": "50.9392073",
    "longitude": "6.9575195",
    "radius": "300",
    "type": "car",
    "premium": 10,
    "when": true,
    "where": false,
    "city": "cologne"
}, {
    "name": "Swimming Accident",
    "latitude": "50.939201",
    "longitude": "6.959762",
    "type": "life",
    "radius": "300",
    "when": false,
    "where": true,
    "premium": 10,
    "city": "cologne"
}, {
    "name": "Getting lost in the wood",
    "latitude": "50.939201",
    "longitude": "6.959762",
    "type": "life",
    "radius": "1000",
    "when": false,
    "where": true,
    "premium": 15,
    "city": "cologne"
}, {
    "name": "Terminal Sickness",
    "premium": 80,
    "type": "life",
    "when": false,
    "where": true,
    "city": "cologne"
}, {
    "name": "Roberry",
    "latitude": "50.9392073",
    "longitude": "6.9575195",
    "type": "house",
    "radius": "300",
    "when": false,
    "where": true,
    "premium": 30,
    "city": "cologne"
}, {
    "name": "Disaster",
    "status": false,
    "latitude": "50.9392073",
    "longitude": "6.9575195",
    "type": "house",
    "when": false,
    "where": true,
    "radius": "10000",
    "premium": 35,
    "city": "cologne"
}, {
    "name": "AutoBahn KM12 Köln-Bonn",
    "type": "car",
    "latitude": "50.9532731",
    "longitude": "6.9511404",
    "radius": "300",
    "when": false,
    "where": true,
    "premium": 15,
    "city": "cologne"

}, {
    "name": "AutoBahn KM4 Köln-Bonn",
    "premium": 15,
    "latitude": "50.9532731",
    "longitude": "6.9511404",
    "radius": "300",
    "when": false,
    "where": true,
    "type": "car",
    "city": "cologne"
}, {
    "name": "AutoBahn KM10 Köln-Düsseldorf",
    "premium": 10,
    "latitude": "50.862751",
    "longitude": "6.9549348",
    "radius": "300",
    "when": false,
    "where": true,
    "type": "car",
    "city": "cologne"
}, {
    "name": "AutoBahn KM30 Köln-Düsseldorf",
    "premium": 5,
    "type": "car",
    "latitude": "51.071841",
    "longitude": "6.986713",
    "when": false,
    "where": true,
    "radius": "300",
    "city": "cologne"
}, {
    "name": "AutoBahn KM12 Bonn-Koblenz",
    "premium": 15,
    "type": "car",
    "latitude": "50.57614",
    "longitude": "7.117293",
    "when": false,
    "where": true,
    "radius": "300",
    "city": "cologne"
}]
